[
  {
    "id": "1",
    "name": "TechFlow Solutions",
    "industry": "Technology",
    "address": "123 Innovation Drive",
    "district": "Downtown Tech District",
    "employees": 245,
    "founded": "2024",
    "revenue": "$12.5M",
    "businessType": "Startup",
    "status": "Active",
    "contact": "contact@techflow.com",
    "description": "AI-powered business automation solutions",
    "coordinates": { "lat": 40.7128, "lng": -74.006 }
  },
  {
    "id": "2",
    "name": "HealthCare Plus",
    "industry": "Healthcare",
    "address": "456 Medical Center Blvd",
    "district": "Medical District",
    "employees": 189,
    "founded": "2023",
    "revenue": "$8.9M",
    "businessType": "SME",
    "status": "Expanding",
    "contact": "info@healthcareplus.com",
    "description": "Comprehensive healthcare services and telemedicine",
    "coordinates": { "lat": 40.7589, "lng": -73.9851 }
  },
  {
    "id": "3",
    "name": "GreenEnergy Co",
    "industry": "Energy",
    "address": "789 Renewable Way",
    "district": "Industrial Zone",
    "employees": 156,
    "founded": "2024",
    "revenue": "$15.2M",
    "businessType": "Corporation",
    "status": "New",
    "contact": "hello@greenenergy.com",
    "description": "Solar and wind energy solutions for businesses",
    "coordinates": { "lat": 40.6782, "lng": -73.9442 }
  },
  {
    "id": "4",
    "name": "FinanceFirst",
    "industry": "Finance",
    "address": "321 Wall Street",
    "district": "Financial District",
    "employees": 134,
    "founded": "2023",
    "revenue": "$6.7M",
    "businessType": "Startup",
    "status": "Active",
    "contact": "support@financefirst.com",
    "description": "Digital banking and investment platform",
    "coordinates": { "lat": 40.7074, "lng": -74.0113 }
  },
  {
    "id": "5",
    "name": "RetailMax",
    "industry": "Retail",
    "address": "654 Commerce Street",
    "district": "Shopping District",
    "employees": 298,
    "founded": "2022",
    "revenue": "$22.1M",
    "businessType": "Franchise",
    "status": "Expanding",
    "contact": "contact@retailmax.com",
    "description": "Multi-brand retail chain with focus on sustainability",
    "coordinates": { "lat": 40.7505, "lng": -73.9934 }
  },
  {
    "id": "6",
    "name": "FoodCraft Kitchen",
    "industry": "Food & Beverage",
    "address": "987 Culinary Lane",
    "district": "Restaurant Row",
    "employees": 67,
    "founded": "2024",
    "revenue": "$3.2M",
    "businessType": "SME",
    "status": "New",
    "contact": "orders@foodcraft.com",
    "description": "Farm-to-table restaurant and catering services",
    "coordinates": { "lat": 40.7614, "lng": -73.9776 }
  },
  {
    "id": "7",
    "name": "EduTech Academy",
    "industry": "Education",
    "address": "147 Learning Boulevard",
    "district": "Education Quarter",
    "employees": 89,
    "founded": "2023",
    "revenue": "$4.8M",
    "businessType": "Startup",
    "status": "Active",
    "contact": "info@edutech.com",
    "description": "Online learning platform and coding bootcamps",
    "coordinates": { "lat": 40.7831, "lng": -73.9712 }
  },
  {
    "id": "8",
    "name": "LogiMove Transport",
    "industry": "Transportation",
    "address": "258 Logistics Park",
    "district": "Industrial Zone",
    "employees": 178,
    "founded": "2022",
    "revenue": "$9.4M",
    "businessType": "Corporation",
    "status": "Relocating",
    "contact": "dispatch@logimove.com",
    "description": "Last-mile delivery and logistics solutions",
    "coordinates": { "lat": 40.6892, "lng": -73.9442 }
  }
]
